$GPRMC,130152.941,A,4423.684,N,00856.227,E,038.9,212.7,130525,000.0,W*71
$GPRMC,130153.941,A,4423.674,N,00856.219,E,038.9,212.7,130525,000.0,W*72
$GPRMC,130154.941,A,4423.665,N,00856.211,E,038.9,212.7,130525,000.0,W*7D
$GPRMC,130155.941,A,4423.656,N,00856.203,E,038.9,212.7,130525,000.0,W*7F
$GPRMC,130156.941,A,4423.647,N,00856.195,E,038.9,212.7,130525,000.0,W*70
$GPRMC,130157.941,A,4423.638,N,00856.186,E,038.9,212.7,130525,000.0,W*7B
$GPRMC,130158.941,A,4423.629,N,00856.178,E,038.9,251.9,130525,000.0,W*7C
$GPRMC,130159.941,A,4423.626,N,00856.164,E,038.9,251.9,130525,000.0,W*7F
$GPRMC,130200.941,A,4423.622,N,00856.150,E,038.9,251.9,130525,000.0,W*73
$GPRMC,130201.941,A,4423.619,N,00856.135,E,038.9,251.9,130525,000.0,W*79
$GPRMC,130202.941,A,4423.616,N,00856.121,E,038.9,251.9,130525,000.0,W*70
$GPRMC,130203.941,A,4423.612,N,00856.107,E,038.9,251.9,130525,000.0,W*71
$GPRMC,130204.941,A,4423.609,N,00856.092,E,038.9,251.9,130525,000.0,W*71
$GPRMC,130205.941,A,4423.606,N,00856.078,E,038.9,251.9,130525,000.0,W*7B
$GPRMC,130206.941,A,4423.602,N,00856.063,E,038.9,208.6,130525,000.0,W*75
$GPRMC,130207.941,A,4423.593,N,00856.056,E,038.9,208.6,130525,000.0,W*79
$GPRMC,130208.941,A,4423.583,N,00856.049,E,038.9,208.6,130525,000.0,W*79
$GPRMC,130209.941,A,4423.574,N,00856.042,E,038.9,208.6,130525,000.0,W*7B
$GPRMC,130210.941,A,4423.564,N,00856.035,E,038.9,208.6,130525,000.0,W*72
$GPRMC,130211.941,A,4423.555,N,00856.027,E,038.9,115.7,130525,000.0,W*7C
$GPRMC,130212.941,A,4423.550,N,00856.041,E,038.9,115.7,130525,000.0,W*7A
$GPRMC,130213.941,A,4423.545,N,00856.055,E,038.9,115.7,130525,000.0,W*7A
$GPRMC,130214.941,A,4423.541,N,00856.068,E,038.9,115.7,130525,000.0,W*77
$GPRMC,130215.941,A,4423.536,N,00856.082,E,038.9,115.7,130525,000.0,W*72
$GPRMC,130216.941,A,4423.531,N,00856.095,E,038.9,115.7,130525,000.0,W*70
$GPRMC,130217.941,A,4423.527,N,00856.109,E,038.9,115.7,130525,000.0,W*72
$GPRMC,130218.941,A,4423.522,N,00856.123,E,038.9,115.7,130525,000.0,W*70
$GPRMC,130219.941,A,4423.517,N,00856.136,E,038.9,115.7,130525,000.0,W*73
$GPRMC,130220.941,A,4423.513,N,00856.150,E,038.9,115.7,130525,000.0,W*7D
$GPRMC,130221.941,A,4423.508,N,00856.163,E,038.9,115.7,130525,000.0,W*76
$GPRMC,130222.941,A,4423.503,N,00856.177,E,038.9,115.7,130525,000.0,W*7B
$GPRMC,130223.941,A,4423.499,N,00856.191,E,038.9,115.7,130525,000.0,W*70
$GPRMC,130224.941,A,4423.494,N,00856.204,E,038.9,115.7,130525,000.0,W*75
$GPRMC,130225.941,A,4423.489,N,00856.218,E,038.9,115.7,130525,000.0,W*75
$GPRMC,130226.941,A,4423.485,N,00856.232,E,038.9,115.7,130525,000.0,W*72
$GPRMC,130227.941,A,4423.480,N,00856.245,E,038.9,115.7,130525,000.0,W*76
$GPRMC,130228.941,A,4423.475,N,00856.259,E,038.9,115.7,130525,000.0,W*7E
$GPRMC,130229.941,A,4423.471,N,00856.272,E,038.9,115.7,130525,000.0,W*72
$GPRMC,130230.941,A,4423.466,N,00856.286,E,038.9,115.7,130525,000.0,W*77
$GPRMC,130231.941,A,4423.461,N,00856.300,E,038.9,115.7,130525,000.0,W*7E
$GPRMC,130232.941,A,4423.457,N,00856.313,E,038.9,115.7,130525,000.0,W*7A
$GPRMC,130233.941,A,4423.452,N,00856.327,E,038.9,115.7,130525,000.0,W*79
$GPRMC,130234.941,A,4423.447,N,00856.340,E,038.9,115.7,130525,000.0,W*7B
$GPRMC,130235.941,A,4423.443,N,00856.354,E,038.9,115.7,130525,000.0,W*7B
$GPRMC,130236.941,A,4423.438,N,00856.368,E,038.9,115.7,130525,000.0,W*7B
$GPRMC,130237.941,A,4423.433,N,00856.381,E,038.9,115.7,130525,000.0,W*76
$GPRMC,130238.941,A,4423.429,N,00856.395,E,038.9,115.7,130525,000.0,W*77
$GPRMC,130239.941,A,4423.424,N,00856.408,E,038.9,115.7,130525,000.0,W*78
$GPRMC,130240.941,A,4423.419,N,00856.422,E,038.9,115.7,130525,000.0,W*70
$GPRMC,130241.941,A,4423.415,N,00856.436,E,038.9,115.7,130525,000.0,W*78
$GPRMC,130242.941,A,4423.410,N,00856.449,E,038.9,115.7,130525,000.0,W*76
$GPRMC,130243.941,A,4423.405,N,00856.463,E,038.9,115.7,130525,000.0,W*7B
$GPRMC,130244.941,A,4423.401,N,00856.477,E,038.9,115.7,130525,000.0,W*7D
$GPRMC,130245.941,A,4423.396,N,00856.490,E,038.9,115.7,130525,000.0,W*7C
$GPRMC,130246.941,A,4423.391,N,00856.504,E,038.9,115.7,130525,000.0,W*74
$GPRMC,130247.941,A,4423.387,N,00856.517,E,038.9,115.7,130525,000.0,W*70
$GPRMC,130248.941,A,4423.382,N,00856.531,E,038.9,115.7,130525,000.0,W*7E
$GPRMC,130249.941,A,4423.377,N,00856.545,E,038.9,115.7,130525,000.0,W*76
$GPRMC,130250.941,A,4423.373,N,00856.558,E,038.9,115.7,130525,000.0,W*76
$GPRMC,130251.941,A,4423.368,N,00856.572,E,038.9,115.7,130525,000.0,W*75
$GPRMC,130252.941,A,4423.363,N,00856.585,E,038.9,115.7,130525,000.0,W*75
$GPRMC,130253.941,A,4423.359,N,00856.599,E,038.9,115.7,130525,000.0,W*70
$GPRMC,130254.941,A,4423.354,N,00856.613,E,038.9,115.7,130525,000.0,W*7B
$GPRMC,130255.941,A,4423.349,N,00856.626,E,038.9,115.7,130525,000.0,W*70
$GPRMC,130256.941,A,4423.344,N,00856.640,E,038.9,115.7,130525,000.0,W*7E
$GPRMC,130257.941,A,4423.340,N,00856.654,E,038.9,157.0,130525,000.0,W*7F
$GPRMC,130258.941,A,4423.330,N,00856.659,E,038.9,157.0,130525,000.0,W*7A
$GPRMC,130259.941,A,4423.320,N,00856.665,E,038.9,157.0,130525,000.0,W*75
$GPRMC,130300.941,A,4423.310,N,00856.671,E,038.9,157.0,130525,000.0,W*7E
$GPRMC,130301.941,A,4423.300,N,00856.677,E,038.9,157.0,130525,000.0,W*78
$GPRMC,130302.941,A,4423.290,N,00856.683,E,038.9,157.0,130525,000.0,W*78
$GPRMC,130303.941,A,4423.280,N,00856.689,E,038.9,157.0,130525,000.0,W*72
$GPRMC,130304.941,A,4423.270,N,00856.695,E,038.9,157.0,130525,000.0,W*77
$GPRMC,130305.941,A,4423.260,N,00856.701,E,038.9,157.0,130525,000.0,W*7B
$GPRMC,130306.941,A,4423.250,N,00856.707,E,038.9,157.0,130525,000.0,W*7D
$GPRMC,130307.941,A,4423.240,N,00856.712,E,038.9,157.0,130525,000.0,W*79
$GPRMC,130308.941,A,4423.231,N,00856.718,E,038.9,157.0,130525,000.0,W*7A
$GPRMC,130309.941,A,4423.221,N,00856.724,E,038.9,157.0,130525,000.0,W*75
$GPRMC,130310.941,A,4423.211,N,00856.730,E,038.9,157.0,130525,000.0,W*7B
$GPRMC,130311.941,A,4423.201,N,00856.736,E,038.9,157.0,130525,000.0,W*7D
$GPRMC,130312.941,A,4423.191,N,00856.742,E,038.9,157.0,130525,000.0,W*77
$GPRMC,130313.941,A,4423.181,N,00856.748,E,038.9,157.0,130525,000.0,W*7D
$GPRMC,130314.941,A,4423.171,N,00856.754,E,038.9,157.0,130525,000.0,W*78
$GPRMC,130315.941,A,4423.161,N,00856.760,E,038.9,157.0,130525,000.0,W*7F
$GPRMC,130316.941,A,4423.151,N,00856.766,E,038.9,157.0,130525,000.0,W*79
$GPRMC,130317.941,A,4423.141,N,00856.771,E,038.9,157.0,130525,000.0,W*7F
$GPRMC,130318.941,A,4423.131,N,00856.777,E,038.9,157.0,130525,000.0,W*71
$GPRMC,130319.941,A,4423.121,N,00856.783,E,038.9,157.0,130525,000.0,W*7A
$GPRMC,130320.941,A,4423.111,N,00856.789,E,038.9,157.0,130525,000.0,W*79
$GPRMC,130321.941,A,4423.101,N,00856.795,E,038.9,157.0,130525,000.0,W*74
$GPRMC,130322.941,A,4423.091,N,00856.801,E,038.9,157.0,130525,000.0,W*7D
$GPRMC,130323.941,A,4423.081,N,00856.807,E,038.9,157.0,130525,000.0,W*7B
$GPRMC,130324.941,A,4423.072,N,00856.813,E,038.9,157.0,130525,000.0,W*75
$GPRMC,130325.941,A,4423.062,N,00856.819,E,038.9,157.0,130525,000.0,W*7F
$GPRMC,130326.941,A,4423.052,N,00856.824,E,038.9,157.0,130525,000.0,W*71
$GPRMC,130327.941,A,4423.042,N,00856.830,E,038.9,157.0,130525,000.0,W*74
$GPRMC,130328.941,A,4423.032,N,00856.836,E,038.9,157.0,130525,000.0,W*7A
$GPRMC,130329.941,A,4423.022,N,00856.842,E,038.9,157.0,130525,000.0,W*79
$GPRMC,130330.941,A,4423.012,N,00856.848,E,038.9,157.0,130525,000.0,W*78
$GPRMC,130331.941,A,4423.002,N,00856.854,E,038.9,157.0,130525,000.0,W*75
$GPRMC,130332.941,A,4422.992,N,00856.860,E,038.9,157.0,130525,000.0,W*70
$GPRMC,130333.941,A,4422.982,N,00856.866,E,038.9,157.0,130525,000.0,W*76
$GPRMC,130334.941,A,4422.972,N,00856.872,E,038.9,157.0,130525,000.0,W*7B
$GPRMC,130335.941,A,4422.962,N,00856.877,E,038.9,157.0,130525,000.0,W*7E
$GPRMC,130336.941,A,4422.952,N,00856.883,E,038.9,157.0,130525,000.0,W*75
$GPRMC,130337.941,A,4422.942,N,00856.889,E,038.9,157.0,130525,000.0,W*7F
$GPRMC,130338.941,A,4422.932,N,00856.895,E,038.9,157.0,130525,000.0,W*7A
$GPRMC,130339.941,A,4422.923,N,00856.901,E,038.9,157.0,130525,000.0,W*77
$GPRMC,130340.941,A,4422.913,N,00856.907,E,038.9,157.0,130525,000.0,W*7C
$GPRMC,130341.941,A,4422.903,N,00856.913,E,038.9,157.0,130525,000.0,W*79
$GPRMC,130342.941,A,4422.893,N,00856.919,E,038.9,157.0,130525,000.0,W*78
$GPRMC,130343.941,A,4422.883,N,00856.925,E,038.9,157.0,130525,000.0,W*77
$GPRMC,130344.941,A,4422.873,N,00856.931,E,038.9,157.0,130525,000.0,W*7A
$GPRMC,130345.941,A,4422.863,N,00856.936,E,038.9,157.0,130525,000.0,W*7D
$GPRMC,130346.941,A,4422.853,N,00856.942,E,038.9,157.0,130525,000.0,W*7E
$GPRMC,130347.941,A,4422.843,N,00856.948,E,038.9,157.0,130525,000.0,W*74
$GPRMC,130348.941,A,4422.833,N,00856.954,E,038.9,157.0,130525,000.0,W*71
$GPRMC,130349.941,A,4422.823,N,00856.960,E,038.9,157.0,130525,000.0,W*76
$GPRMC,130350.941,A,4422.813,N,00856.966,E,038.9,157.0,130525,000.0,W*7B
$GPRMC,130351.941,A,4422.803,N,00856.972,E,038.9,157.0,130525,000.0,W*7E
$GPRMC,130352.941,A,4422.793,N,00856.978,E,038.9,157.0,130525,000.0,W*71
$GPRMC,130353.941,A,4422.783,N,00856.984,E,038.9,157.0,130525,000.0,W*72
$GPRMC,130354.941,A,4422.773,N,00856.989,E,038.9,157.0,130525,000.0,W*77
$GPRMC,130355.941,A,4422.764,N,00856.995,E,038.9,157.0,130525,000.0,W*7D
$GPRMC,130356.941,A,4422.754,N,00857.001,E,038.9,157.0,130525,000.0,W*78
$GPRMC,130357.941,A,4422.744,N,00857.007,E,038.9,157.0,130525,000.0,W*7E
$GPRMC,130358.941,A,4422.734,N,00857.013,E,038.9,157.0,130525,000.0,W*73
$GPRMC,130359.941,A,4422.724,N,00857.019,E,038.9,157.0,130525,000.0,W*79
$GPRMC,130400.941,A,4422.714,N,00857.025,E,038.9,157.0,130525,000.0,W*7E
$GPRMC,130401.941,A,4422.704,N,00857.031,E,038.9,157.0,130525,000.0,W*7B
$GPRMC,130402.941,A,4422.694,N,00857.037,E,038.9,157.0,130525,000.0,W*76
$GPRMC,130403.941,A,4422.684,N,00857.043,E,038.9,157.0,130525,000.0,W*75
$GPRMC,130404.941,A,4422.674,N,00857.048,E,038.9,157.0,130525,000.0,W*76
$GPRMC,130405.941,A,4422.664,N,00857.054,E,038.9,157.0,130525,000.0,W*7B
$GPRMC,130406.941,A,4422.654,N,00857.060,E,038.9,157.0,130525,000.0,W*7C
$GPRMC,130407.941,A,4422.644,N,00857.066,E,038.9,157.0,130525,000.0,W*7A
$GPRMC,130408.941,A,4422.634,N,00857.072,E,038.9,157.0,130525,000.0,W*77
$GPRMC,130409.941,A,4422.624,N,00857.078,E,038.9,157.0,130525,000.0,W*7D
$GPRMC,130410.941,A,4422.615,N,00857.084,E,038.9,157.0,130525,000.0,W*74
$GPRMC,130411.941,A,4422.605,N,00857.090,E,038.9,157.0,130525,000.0,W*71
$GPRMC,130412.941,A,4422.595,N,00857.096,E,038.9,157.0,130525,000.0,W*7E
$GPRMC,130413.941,A,4422.585,N,00857.101,E,038.9,157.0,130525,000.0,W*71
$GPRMC,130414.941,A,4422.575,N,00857.107,E,038.9,157.0,130525,000.0,W*7F
$GPRMC,130415.941,A,4422.565,N,00857.113,E,038.9,157.0,130525,000.0,W*7A
$GPRMC,130416.941,A,4422.555,N,00857.119,E,038.9,157.0,130525,000.0,W*70
$GPRMC,130417.941,A,4422.545,N,00857.125,E,038.9,157.0,130525,000.0,W*7F
$GPRMC,130418.941,A,4422.535,N,00857.131,E,038.9,157.0,130525,000.0,W*72
$GPRMC,130419.941,A,4422.525,N,00857.137,E,038.9,157.0,130525,000.0,W*74
$GPRMC,130420.941,A,4422.515,N,00857.143,E,038.9,157.0,130525,000.0,W*7E
$GPRMC,130421.941,A,4422.505,N,00857.149,E,038.9,157.0,130525,000.0,W*74
$GPRMC,130422.941,A,4422.495,N,00857.155,E,038.9,157.0,130525,000.0,W*72
$GPRMC,130423.941,A,4422.485,N,00857.160,E,038.9,157.0,130525,000.0,W*74
$GPRMC,130424.941,A,4422.475,N,00857.166,E,038.9,157.0,130525,000.0,W*7A
$GPRMC,130425.941,A,4422.465,N,00857.172,E,038.9,157.0,130525,000.0,W*7F
$GPRMC,130426.941,A,4422.456,N,00857.178,E,038.9,157.0,130525,000.0,W*76
$GPRMC,130427.941,A,4422.446,N,00857.184,E,038.9,157.0,130525,000.0,W*75
$GPRMC,130428.941,A,4422.436,N,00857.190,E,038.9,157.0,130525,000.0,W*78
$GPRMC,130429.941,A,4422.426,N,00857.196,E,038.9,157.0,130525,000.0,W*7E
$GPRMC,130430.941,A,4422.416,N,00857.202,E,038.9,157.0,130525,000.0,W*7B
$GPRMC,130431.941,A,4422.406,N,00857.208,E,038.9,157.0,130525,000.0,W*71
$GPRMC,130432.941,A,4422.396,N,00857.213,E,038.9,157.0,130525,000.0,W*76
$GPRMC,130433.941,A,4422.386,N,00857.219,E,038.9,157.0,130525,000.0,W*7C
$GPRMC,130434.941,A,4422.376,N,00857.225,E,038.9,157.0,130525,000.0,W*7B
$GPRMC,130435.941,A,4422.366,N,00857.231,E,038.9,157.0,130525,000.0,W*7E
$GPRMC,130436.941,A,4422.356,N,00857.237,E,038.9,157.0,130525,000.0,W*78
$GPRMC,130437.941,A,4422.346,N,00857.243,E,038.9,157.0,130525,000.0,W*7B
$GPRMC,130438.941,A,4422.336,N,00857.249,E,038.9,157.0,130525,000.0,W*79
$GPRMC,130439.941,A,4422.326,N,00857.255,E,038.9,157.0,130525,000.0,W*74
$GPRMC,130440.941,A,4422.316,N,00857.261,E,038.9,157.0,130525,000.0,W*7E
$GPRMC,130441.941,A,4422.307,N,00857.266,E,038.9,157.0,130525,000.0,W*78
$GPRMC,130442.941,A,4422.297,N,00857.272,E,038.9,157.0,130525,000.0,W*76
$GPRMC,130443.941,A,4422.287,N,00857.278,E,038.9,157.0,130525,000.0,W*7C
$GPRMC,130444.941,A,4422.277,N,00857.284,E,038.9,157.0,130525,000.0,W*77
$GPRMC,130445.941,A,4422.267,N,00857.290,E,038.9,157.0,130525,000.0,W*72
$GPRMC,130446.941,A,4422.257,N,00857.296,E,038.9,157.0,130525,000.0,W*74
$GPRMC,130447.941,A,4422.247,N,00857.302,E,038.9,157.0,130525,000.0,W*78
$GPRMC,130448.941,A,4422.237,N,00857.308,E,038.9,157.0,130525,000.0,W*7A
$GPRMC,130449.941,A,4422.227,N,00857.314,E,038.9,157.0,130525,000.0,W*77
$GPRMC,130450.941,A,4422.217,N,00857.320,E,038.9,157.0,130525,000.0,W*7B
$GPRMC,130451.941,A,4422.207,N,00857.325,E,038.9,157.0,130525,000.0,W*7E
$GPRMC,130452.941,A,4422.197,N,00857.331,E,038.9,157.0,130525,000.0,W*72
$GPRMC,130453.941,A,4422.187,N,00857.337,E,038.9,157.0,130525,000.0,W*74
$GPRMC,130454.941,A,4422.177,N,00857.343,E,038.9,157.0,130525,000.0,W*7F
$GPRMC,130455.941,A,4422.167,N,00857.349,E,038.9,157.0,130525,000.0,W*75
$GPRMC,130456.941,A,4422.157,N,00857.355,E,038.9,157.0,130525,000.0,W*78
$GPRMC,130457.941,A,4422.148,N,00857.361,E,038.9,157.0,130525,000.0,W*70
$GPRMC,130458.941,A,4422.138,N,00857.367,E,038.9,157.0,130525,000.0,W*7E
$GPRMC,130459.941,A,4422.128,N,00857.373,E,038.9,157.0,130525,000.0,W*7B
$GPRMC,130500.941,A,4422.118,N,00857.378,E,038.9,157.0,130525,000.0,W*7E
$GPRMC,130501.941,A,4422.108,N,00857.384,E,038.9,157.0,130525,000.0,W*7D
$GPRMC,130502.941,A,4422.098,N,00857.390,E,038.9,157.0,130525,000.0,W*73
$GPRMC,130503.941,A,4422.088,N,00857.396,E,038.9,157.0,130525,000.0,W*75
$GPRMC,130504.941,A,4422.078,N,00857.402,E,038.9,157.0,130525,000.0,W*77
$GPRMC,130505.941,A,4422.068,N,00857.408,E,038.9,157.0,130525,000.0,W*7D
$GPRMC,130506.941,A,4422.058,N,00857.414,E,038.9,122.3,130525,000.0,W*71
$GPRMC,130507.941,A,4422.052,N,00857.427,E,038.9,122.3,130525,000.0,W*7A
$GPRMC,130508.941,A,4422.047,N,00857.439,E,038.9,122.3,130525,000.0,W*7E
$GPRMC,130509.941,A,4422.041,N,00857.452,E,038.9,122.3,130525,000.0,W*74
$GPRMC,130510.941,A,4422.035,N,00857.465,E,038.9,122.3,130525,000.0,W*7B
$GPRMC,130511.941,A,4422.029,N,00857.478,E,038.9,122.3,130525,000.0,W*7B
$GPRMC,130512.941,A,4422.024,N,00857.490,E,038.9,122.3,130525,000.0,W*73
$GPRMC,130513.941,A,4422.018,N,00857.503,E,038.9,122.3,130525,000.0,W*76
$GPRMC,130514.941,A,4422.012,N,00857.516,E,038.9,122.3,130525,000.0,W*7F
$GPRMC,130515.941,A,4422.006,N,00857.529,E,038.9,122.3,130525,000.0,W*77
$GPRMC,130516.941,A,4422.001,N,00857.541,E,038.9,122.3,130525,000.0,W*7D
$GPRMC,130517.941,A,4421.995,N,00857.554,E,038.9,122.3,130525,000.0,W*7F
$GPRMC,130518.941,A,4421.989,N,00857.567,E,038.9,122.3,130525,000.0,W*7D
$GPRMC,130519.941,A,4421.983,N,00857.580,E,038.9,122.3,130525,000.0,W*7F
$GPRMC,130520.941,A,4421.977,N,00857.592,E,038.9,122.3,130525,000.0,W*7D
$GPRMC,130521.941,A,4421.972,N,00857.605,E,038.9,122.3,130525,000.0,W*74
$GPRMC,130522.941,A,4421.966,N,00857.618,E,038.9,122.3,130525,000.0,W*7E
$GPRMC,130523.941,A,4421.960,N,00857.631,E,038.9,122.3,130525,000.0,W*72
$GPRMC,130524.941,A,4421.954,N,00857.643,E,038.9,122.3,130525,000.0,W*77
$GPRMC,130525.941,A,4421.949,N,00857.656,E,038.9,122.3,130525,000.0,W*7E
$GPRMC,130526.941,A,4421.943,N,00857.669,E,038.9,122.3,130525,000.0,W*7B
$GPRMC,130527.941,A,4421.937,N,00857.682,E,038.9,122.3,130525,000.0,W*7C
$GPRMC,130528.941,A,4421.931,N,00857.694,E,038.9,122.3,130525,000.0,W*72
$GPRMC,130529.941,A,4421.926,N,00857.707,E,038.9,122.3,130525,000.0,W*7E
$GPRMC,130530.941,A,4421.920,N,00857.720,E,038.9,122.3,130525,000.0,W*75
$GPRMC,130531.941,A,4421.914,N,00857.733,E,038.9,122.3,130525,000.0,W*71
$GPRMC,130532.941,A,4421.908,N,00857.746,E,038.9,122.3,130525,000.0,W*7D
$GPRMC,130533.941,A,4421.903,N,00857.758,E,038.9,122.3,130525,000.0,W*78
$GPRMC,130534.941,A,4421.897,N,00857.771,E,038.9,122.3,130525,000.0,W*78
$GPRMC,130535.941,A,4421.891,N,00857.784,E,038.9,122.3,130525,000.0,W*75
$GPRMC,130536.941,A,4421.885,N,00857.797,E,038.9,122.3,130525,000.0,W*71
$GPRMC,130537.941,A,4421.880,N,00857.809,E,038.9,122.3,130525,000.0,W*7D
$GPRMC,130538.941,A,4421.874,N,00857.822,E,038.9,122.3,130525,000.0,W*70
$GPRMC,130539.941,A,4421.868,N,00857.835,E,038.9,122.3,130525,000.0,W*7A
$GPRMC,130540.941,A,4421.862,N,00857.848,E,038.9,122.3,130525,000.0,W*74
$GPRMC,130541.941,A,4421.857,N,00857.860,E,038.9,122.3,130525,000.0,W*79
$GPRMC,130542.941,A,4421.851,N,00857.873,E,038.9,122.3,130525,000.0,W*7E
$GPRMC,130543.941,A,4421.845,N,00857.886,E,038.9,122.3,130525,000.0,W*70
$GPRMC,130544.941,A,4421.839,N,00857.899,E,038.9,122.3,130525,000.0,W*72
$GPRMC,130545.941,A,4421.834,N,00857.911,E,038.9,122.3,130525,000.0,W*7F
$GPRMC,130546.941,A,4421.828,N,00857.924,E,038.9,122.3,130525,000.0,W*77
$GPRMC,130547.941,A,4421.822,N,00857.937,E,038.9,122.3,130525,000.0,W*7E
$GPRMC,130548.941,A,4421.816,N,00857.950,E,038.9,122.3,130525,000.0,W*77
$GPRMC,130549.941,A,4421.810,N,00857.962,E,038.9,122.3,130525,000.0,W*71
$GPRMC,130550.941,A,4421.805,N,00857.975,E,038.9,122.3,130525,000.0,W*7B
$GPRMC,130551.941,A,4421.799,N,00857.988,E,038.9,122.3,130525,000.0,W*72
$GPRMC,130552.941,A,4421.793,N,00858.001,E,038.9,122.3,130525,000.0,W*7C
$GPRMC,130553.941,A,4421.787,N,00858.013,E,038.9,122.3,130525,000.0,W*7B
$GPRMC,130554.941,A,4421.782,N,00858.026,E,038.9,122.3,130525,000.0,W*7F
$GPRMC,130555.941,A,4421.776,N,00858.039,E,038.9,122.3,130525,000.0,W*7B
$GPRMC,130556.941,A,4421.770,N,00858.052,E,038.9,122.3,130525,000.0,W*73
$GPRMC,130557.941,A,4421.764,N,00858.064,E,038.9,122.3,130525,000.0,W*72
$GPRMC,130558.941,A,4421.759,N,00858.077,E,038.9,122.3,130525,000.0,W*71
$GPRMC,130559.941,A,4421.753,N,00858.090,E,038.9,122.3,130525,000.0,W*73
$GPRMC,130600.941,A,4421.747,N,00858.103,E,038.9,122.3,130525,000.0,W*72
$GPRMC,130601.941,A,4421.741,N,00858.115,E,038.9,122.3,130525,000.0,W*72
$GPRMC,130602.941,A,4421.736,N,00858.128,E,038.9,122.3,130525,000.0,W*7F
$GPRMC,130603.941,A,4421.730,N,00858.141,E,038.9,122.3,130525,000.0,W*77
$GPRMC,130604.941,A,4421.724,N,00858.154,E,038.9,122.3,130525,000.0,W*71
$GPRMC,130605.941,A,4421.718,N,00858.167,E,038.9,122.3,130525,000.0,W*7F
$GPRMC,130606.941,A,4421.713,N,00858.179,E,038.9,122.3,130525,000.0,W*78
$GPRMC,130607.941,A,4421.707,N,00858.192,E,038.9,122.3,130525,000.0,W*79
$GPRMC,130608.941,A,4421.701,N,00858.205,E,038.9,122.3,130525,000.0,W*7D
$GPRMC,130609.941,A,4421.695,N,00858.218,E,038.9,122.3,130525,000.0,W*7C
$GPRMC,130610.941,A,4421.690,N,00858.230,E,038.9,122.3,130525,000.0,W*7B
$GPRMC,130611.941,A,4421.684,N,00858.243,E,038.9,122.3,130525,000.0,W*7B
$GPRMC,130612.941,A,4421.678,N,00858.256,E,038.9,122.3,130525,000.0,W*7F
$GPRMC,130613.941,A,4421.672,N,00858.269,E,038.9,122.3,130525,000.0,W*78
$GPRMC,130614.941,A,4421.667,N,00858.281,E,038.9,122.3,130525,000.0,W*7D
$GPRMC,130615.941,A,4421.661,N,00858.294,E,038.9,122.3,130525,000.0,W*7E
$GPRMC,130616.941,A,4421.655,N,00858.307,E,038.9,122.3,130525,000.0,W*71
$GPRMC,130617.941,A,4421.649,N,00858.320,E,038.9,122.3,130525,000.0,W*78
$GPRMC,130618.941,A,4421.643,N,00858.332,E,038.9,122.3,130525,000.0,W*7E
$GPRMC,130619.941,A,4421.638,N,00858.345,E,038.9,122.3,130525,000.0,W*73
$GPRMC,130620.941,A,4421.632,N,00858.358,E,038.9,122.3,130525,000.0,W*7F
$GPRMC,130621.941,A,4421.626,N,00858.371,E,038.9,122.3,130525,000.0,W*70
$GPRMC,130622.941,A,4421.620,N,00858.383,E,038.9,122.3,130525,000.0,W*78
$GPRMC,130623.941,A,4421.615,N,00858.396,E,038.9,122.3,130525,000.0,W*7B
$GPRMC,130624.941,A,4421.609,N,00858.409,E,038.9,122.3,130525,000.0,W*70
$GPRMC,130625.941,A,4421.603,N,00858.422,E,038.9,122.3,130525,000.0,W*72
$GPRMC,130626.941,A,4421.597,N,00858.434,E,038.9,122.3,130525,000.0,W*78
$GPRMC,130627.941,A,4421.592,N,00858.447,E,038.9,122.3,130525,000.0,W*78
$GPRMC,130628.941,A,4421.586,N,00858.460,E,038.9,122.3,130525,000.0,W*77
$GPRMC,130629.941,A,4421.580,N,00858.473,E,038.9,122.3,130525,000.0,W*72
$GPRMC,130630.941,A,4421.574,N,00858.485,E,038.9,122.3,130525,000.0,W*78
$GPRMC,130631.941,A,4421.569,N,00858.498,E,038.9,122.3,130525,000.0,W*79
$GPRMC,130632.941,A,4421.563,N,00858.511,E,038.9,122.3,130525,000.0,W*70
$GPRMC,130633.941,A,4421.557,N,00858.524,E,038.9,122.3,130525,000.0,W*70
$GPRMC,130634.941,A,4421.551,N,00858.536,E,038.9,122.3,130525,000.0,W*72
$GPRMC,130635.941,A,4421.546,N,00858.549,E,038.9,122.3,130525,000.0,W*7D
$GPRMC,130636.941,A,4421.540,N,00858.562,E,038.9,122.3,130525,000.0,W*71
$GPRMC,130637.941,A,4421.534,N,00858.575,E,038.9,122.3,130525,000.0,W*75
$GPRMC,130638.941,A,4421.528,N,00858.587,E,038.9,122.3,130525,000.0,W*7A
$GPRMC,130639.941,A,4421.523,N,00858.600,E,038.9,122.3,130525,000.0,W*7C
$GPRMC,130640.941,A,4421.517,N,00858.613,E,038.9,122.3,130525,000.0,W*77
$GPRMC,130641.941,A,4421.511,N,00858.626,E,038.9,122.3,130525,000.0,W*76
$GPRMC,130642.941,A,4421.505,N,00858.639,E,038.9,122.3,130525,000.0,W*7E
$GPRMC,130643.941,A,4421.500,N,00858.651,E,038.9,122.3,130525,000.0,W*74
$GPRMC,130644.941,A,4421.494,N,00858.664,E,038.9,122.3,130525,000.0,W*79
$GPRMC,130645.941,A,4421.488,N,00858.677,E,038.9,122.3,130525,000.0,W*77
$GPRMC,130646.941,A,4421.482,N,00858.690,E,038.9,122.3,130525,000.0,W*77
$GPRMC,130647.941,A,4421.476,N,00858.702,E,038.9,122.3,130525,000.0,W*77
$GPRMC,130648.941,A,4421.471,N,00858.715,E,038.9,122.3,130525,000.0,W*79
$GPRMC,130649.941,A,4421.465,N,00858.728,E,038.9,122.3,130525,000.0,W*73
$GPRMC,130650.941,A,4421.459,N,00858.741,E,038.9,122.3,130525,000.0,W*7B
$GPRMC,130651.941,A,4421.453,N,00858.753,E,038.9,122.3,130525,000.0,W*73
$GPRMC,130652.941,A,4421.448,N,00858.766,E,038.9,122.3,130525,000.0,W*7C
$GPRMC,130653.941,A,4421.442,N,00858.779,E,038.9,122.3,130525,000.0,W*79
$GPRMC,130654.941,A,4421.436,N,00858.792,E,038.9,122.3,130525,000.0,W*78
$GPRMC,130655.941,A,4421.430,N,00858.804,E,038.9,122.3,130525,000.0,W*7F
$GPRMC,130656.941,A,4421.425,N,00858.817,E,038.9,122.3,130525,000.0,W*7A
$GPRMC,130657.941,A,4421.419,N,00858.830,E,038.9,122.3,130525,000.0,W*71
$GPRMC,130658.941,A,4421.413,N,00858.843,E,038.9,122.3,130525,000.0,W*70
$GPRMC,130659.941,A,4421.407,N,00858.855,E,038.9,122.3,130525,000.0,W*73
$GPRMC,130700.941,A,4421.402,N,00858.868,E,038.9,122.3,130525,000.0,W*75
$GPRMC,130701.941,A,4421.396,N,00858.881,E,038.9,122.3,130525,000.0,W*79
$GPRMC,130702.941,A,4421.390,N,00858.894,E,038.9,122.3,130525,000.0,W*78
$GPRMC,130703.941,A,4421.384,N,00858.906,E,038.9,122.3,130525,000.0,W*76
$GPRMC,130704.941,A,4421.379,N,00858.919,E,038.9,122.3,130525,000.0,W*7D
$GPRMC,130705.941,A,4421.373,N,00858.932,E,038.9,122.3,130525,000.0,W*7F
$GPRMC,130706.941,A,4421.367,N,00858.945,E,038.9,122.3,130525,000.0,W*79
$GPRMC,130707.941,A,4421.361,N,00858.957,E,038.9,122.3,130525,000.0,W*7D
$GPRMC,130708.941,A,4421.356,N,00858.970,E,038.9,122.3,130525,000.0,W*73
$GPRMC,130709.941,A,4421.350,N,00858.983,E,038.9,122.3,130525,000.0,W*78
$GPRMC,130710.941,A,4421.344,N,00858.996,E,038.9,122.3,130525,000.0,W*71
$GPRMC,130711.941,A,4421.338,N,00859.008,E,038.9,122.3,130525,000.0,W*74
$GPRMC,130712.941,A,4421.333,N,00859.021,E,038.9,122.3,130525,000.0,W*77
$GPRMC,130713.941,A,4421.327,N,00859.034,E,038.9,122.3,130525,000.0,W*77
$GPRMC,130714.941,A,4421.321,N,00859.047,E,038.9,122.3,130525,000.0,W*72
$GPRMC,130715.941,A,4421.315,N,00859.060,E,038.9,122.3,130525,000.0,W*71
$GPRMC,130716.941,A,4421.309,N,00859.072,E,038.9,122.3,130525,000.0,W*7C
$GPRMC,130717.941,A,4421.304,N,00859.085,E,038.9,122.3,130525,000.0,W*78
$GPRMC,130718.941,A,4421.298,N,00859.098,E,038.9,122.3,130525,000.0,W*7F
$GPRMC,130719.941,A,4421.292,N,00859.111,E,038.9,122.3,130525,000.0,W*74
$GPRMC,130720.941,A,4421.286,N,00859.123,E,038.9,122.3,130525,000.0,W*7A
$GPRMC,130721.941,A,4421.281,N,00859.136,E,038.9,122.3,130525,000.0,W*78
$GPRMC,130722.941,A,4421.275,N,00859.149,E,038.9,122.3,130525,000.0,W*78
$GPRMC,130723.941,A,4421.269,N,00859.162,E,038.9,122.3,130525,000.0,W*7D
$GPRMC,130724.941,A,4421.263,N,00859.174,E,038.9,122.3,130525,000.0,W*77
$GPRMC,130725.941,A,4421.258,N,00859.187,E,038.9,122.3,130525,000.0,W*72
$GPRMC,130726.941,A,4421.252,N,00859.200,E,038.9,122.3,130525,000.0,W*77
$GPRMC,130727.941,A,4421.246,N,00859.213,E,038.9,122.3,130525,000.0,W*71
$GPRMC,130728.941,A,4421.240,N,00859.225,E,038.9,122.3,130525,000.0,W*7D
$GPRMC,130729.941,A,4421.235,N,00859.238,E,038.9,122.3,130525,000.0,W*72
$GPRMC,130730.941,A,4421.229,N,00859.251,E,038.9,122.3,130525,000.0,W*78
$GPRMC,130731.941,A,4421.223,N,00859.264,E,038.9,122.3,130525,000.0,W*75
$GPRMC,130732.941,A,4421.217,N,00859.276,E,038.9,122.3,130525,000.0,W*72
$GPRMC,130733.941,A,4421.212,N,00859.289,E,038.9,122.3,130525,000.0,W*76
$GPRMC,130734.941,A,4421.206,N,00859.302,E,038.9,122.3,130525,000.0,W*76
$GPRMC,130735.941,A,4421.200,N,00859.315,E,038.9,122.3,130525,000.0,W*77
$GPRMC,130736.941,A,4421.194,N,00859.327,E,038.9,122.3,130525,000.0,W*7B
$GPRMC,130737.941,A,4421.189,N,00859.340,E,038.9,122.3,130525,000.0,W*77
$GPRMC,130738.941,A,4421.183,N,00859.353,E,038.9,122.3,130525,000.0,W*70
$GPRMC,130739.941,A,4421.177,N,00859.366,E,038.9,122.3,130525,000.0,W*7C
$GPRMC,130740.941,A,4421.171,N,00859.378,E,038.9,122.3,130525,000.0,W*7B
$GPRMC,130741.941,A,4421.166,N,00859.391,E,038.9,122.3,130525,000.0,W*7B
$GPRMC,130742.941,A,4421.160,N,00859.404,E,038.9,122.3,130525,000.0,W*75
$GPRMC,130743.941,A,4421.154,N,00859.417,E,038.9,122.3,130525,000.0,W*71
$GPRMC,130744.941,A,4421.148,N,00859.429,E,038.9,122.3,130525,000.0,W*76
$GPRMC,130745.941,A,4421.142,N,00859.442,E,038.9,122.3,130525,000.0,W*70
$GPRMC,130746.941,A,4421.137,N,00859.455,E,038.9,122.3,130525,000.0,W*77
$GPRMC,130747.941,A,4421.131,N,00859.468,E,038.9,122.3,130525,000.0,W*7E
$GPRMC,130748.941,A,4421.125,N,00859.480,E,038.9,122.3,130525,000.0,W*72
$GPRMC,130749.941,A,4421.119,N,00859.493,E,038.9,122.3,130525,000.0,W*7E
$GPRMC,130750.941,A,4421.114,N,00859.506,E,038.9,122.3,130525,000.0,W*76
$GPRMC,130751.941,A,4421.108,N,00859.519,E,038.9,122.3,130525,000.0,W*74
$GPRMC,130752.941,A,4421.102,N,00859.532,E,038.9,122.3,130525,000.0,W*74
$GPRMC,130753.941,A,4421.096,N,00859.544,E,038.9,122.3,130525,000.0,W*78
$GPRMC,130754.941,A,4421.091,N,00859.557,E,038.9,122.3,130525,000.0,W*7A
$GPRMC,130755.941,A,4421.085,N,00859.570,E,038.9,122.3,130525,000.0,W*7B
$GPRMC,130756.941,A,4421.079,N,00859.583,E,038.9,122.3,130525,000.0,W*77
$GPRMC,130757.941,A,4421.073,N,00859.595,E,038.9,122.3,130525,000.0,W*7B
$GPRMC,130758.941,A,4421.068,N,00859.608,E,038.9,122.3,130525,000.0,W*79
$GPRMC,130759.941,A,4421.062,N,00859.621,E,038.9,122.3,130525,000.0,W*79
$GPRMC,130800.941,A,4421.056,N,00859.634,E,038.9,122.3,130525,000.0,W*79
$GPRMC,130801.941,A,4421.050,N,00859.646,E,038.9,122.3,130525,000.0,W*7B
$GPRMC,130802.941,A,4421.045,N,00859.659,E,038.9,122.3,130525,000.0,W*72
$GPRMC,130803.941,A,4421.039,N,00859.672,E,038.9,122.3,130525,000.0,W*71
$GPRMC,130804.941,A,4421.033,N,00859.685,E,038.9,122.3,130525,000.0,W*74
$GPRMC,130805.941,A,4421.027,N,00859.697,E,038.9,122.3,130525,000.0,W*73
$GPRMC,130806.941,A,4421.022,N,00859.710,E,038.9,122.3,130525,000.0,W*7B
$GPRMC,130807.941,A,4421.016,N,00859.723,E,038.9,122.3,130525,000.0,W*7D
$GPRMC,130808.941,A,4421.010,N,00859.736,E,038.9,122.3,130525,000.0,W*70
$GPRMC,130809.941,A,4421.004,N,00859.748,E,038.9,122.3,130525,000.0,W*7D
$GPRMC,130810.941,A,4420.999,N,00859.761,E,038.9,122.3,130525,000.0,W*72
$GPRMC,130811.941,A,4420.993,N,00859.774,E,038.9,122.3,130525,000.0,W*7D
$GPRMC,130812.941,A,4420.987,N,00859.787,E,038.9,122.3,130525,000.0,W*77
$GPRMC,130813.941,A,4420.981,N,00859.799,E,038.9,122.3,130525,000.0,W*7F
$GPRMC,130814.941,A,4420.975,N,00859.812,E,038.9,122.3,130525,000.0,W*7F
$GPRMC,130815.941,A,4420.970,N,00859.825,E,038.9,122.3,130525,000.0,W*7F
$GPRMC,130816.941,A,4420.964,N,00859.838,E,038.9,122.3,130525,000.0,W*75
$GPRMC,130817.941,A,4420.958,N,00859.850,E,038.9,122.3,130525,000.0,W*75
$GPRMC,130818.941,A,4420.952,N,00859.863,E,038.9,122.3,130525,000.0,W*70
$GPRMC,130819.941,A,4420.947,N,00859.876,E,038.9,122.3,130525,000.0,W*71
$GPRMC,130820.941,A,4420.941,N,00859.889,E,038.9,122.3,130525,000.0,W*7D
$GPRMC,130821.941,A,4420.935,N,00859.901,E,038.9,122.3,130525,000.0,W*7E
$GPRMC,130822.941,A,4420.929,N,00859.914,E,038.9,122.3,130525,000.0,W*74
$GPRMC,130823.941,A,4420.924,N,00859.927,E,038.9,122.3,130525,000.0,W*78
$GPRMC,130824.941,A,4420.918,N,00859.940,E,038.9,122.3,130525,000.0,W*71
$GPRMC,130825.941,A,4420.912,N,00859.953,E,038.9,122.3,130525,000.0,W*78
$GPRMC,130826.941,A,4420.906,N,00859.965,E,038.9,122.3,130525,000.0,W*7B
$GPRMC,130827.941,A,4420.901,N,00859.978,E,038.9,122.3,130525,000.0,W*71
$GPRMC,130828.941,A,4420.895,N,00859.991,E,038.9,122.3,130525,000.0,W*75
$GPRMC,130829.941,A,4420.889,N,00900.004,E,038.9,122.3,130525,000.0,W*71
$GPRMC,130830.941,A,4420.883,N,00900.016,E,038.9,122.3,130525,000.0,W*70
$GPRMC,130831.941,A,4420.878,N,00900.029,E,038.9,122.3,130525,000.0,W*79
$GPRMC,130832.941,A,4420.872,N,00900.042,E,038.9,122.3,130525,000.0,W*7D
$GPRMC,130833.941,A,4420.866,N,00900.055,E,038.9,122.3,130525,000.0,W*7F
$GPRMC,130834.941,A,4420.860,N,00900.067,E,038.9,122.3,130525,000.0,W*7F
$GPRMC,130835.941,A,4420.855,N,00900.080,E,038.9,122.3,130525,000.0,W*71
$GPRMC,130836.941,A,4420.849,N,00900.093,E,038.9,122.3,130525,000.0,W*7D
$GPRMC,130837.941,A,4420.843,N,00900.106,E,038.9,122.3,130525,000.0,W*7B
$GPRMC,130838.941,A,4420.837,N,00900.118,E,038.9,122.3,130525,000.0,W*78
$GPRMC,130839.941,A,4420.832,N,00900.131,E,038.9,122.3,130525,000.0,W*77
$GPRMC,130840.941,A,4420.826,N,00900.144,E,038.9,122.3,130525,000.0,W*7E
$GPRMC,130841.941,A,4420.820,N,00900.157,E,038.9,122.3,130525,000.0,W*7B
$GPRMC,130842.941,A,4420.814,N,00900.169,E,038.9,122.3,130525,000.0,W*72
$GPRMC,130843.941,A,4420.808,N,00900.182,E,038.9,122.3,130525,000.0,W*7B
$GPRMC,130844.941,A,4420.803,N,00900.195,E,038.9,122.3,130525,000.0,W*71
$GPRMC,130845.941,A,4420.797,N,00900.208,E,038.9,122.3,130525,000.0,W*75
$GPRMC,130846.941,A,4420.791,N,00900.220,E,038.9,122.3,130525,000.0,W*7A
$GPRMC,130847.941,A,4420.785,N,00900.233,E,038.9,122.3,130525,000.0,W*7C
$GPRMC,130848.941,A,4420.780,N,00900.246,E,038.9,122.3,130525,000.0,W*74
$GPRMC,130849.941,A,4420.774,N,00900.259,E,038.9,122.3,130525,000.0,W*70
$GPRMC,130850.941,A,4420.768,N,00900.271,E,038.9,122.3,130525,000.0,W*7F
$GPRMC,130851.941,A,4420.762,N,00900.284,E,038.9,122.3,130525,000.0,W*7E
$GPRMC,130852.941,A,4420.757,N,00900.297,E,038.9,122.3,130525,000.0,W*79
$GPRMC,130853.941,A,4420.751,N,00900.310,E,038.9,122.3,130525,000.0,W*70
$GPRMC,130854.941,A,4420.745,N,00900.322,E,038.9,122.3,130525,000.0,W*73
$GPRMC,130855.941,A,4420.739,N,00900.335,E,038.9,122.3,130525,000.0,W*7F
$GPRMC,130856.941,A,4420.734,N,00900.348,E,038.9,122.3,130525,000.0,W*7B
$GPRMC,130857.941,A,4420.728,N,00900.361,E,038.9,122.3,130525,000.0,W*7C
$GPRMC,130858.941,A,4420.722,N,00900.373,E,038.9,122.3,130525,000.0,W*7A
$GPRMC,130859.941,A,4420.716,N,00900.386,E,038.9,122.3,130525,000.0,W*76
$GPRMC,130900.941,A,4420.711,N,00900.399,E,038.9,122.3,130525,000.0,W*72
$GPRMC,130901.941,A,4420.705,N,00900.412,E,038.9,122.3,130525,000.0,W*72
$GPRMC,130902.941,A,4420.699,N,00900.425,E,038.9,122.3,130525,000.0,W*71
$GPRMC,130903.941,A,4420.693,N,00900.437,E,038.9,122.3,130525,000.0,W*79
$GPRMC,130904.941,A,4420.688,N,00900.450,E,038.9,122.3,130525,000.0,W*75
$GPRMC,130905.941,A,4420.682,N,00900.463,E,038.9,122.3,130525,000.0,W*7E
$GPRMC,130906.941,A,4420.676,N,00900.476,E,038.9,122.3,130525,000.0,W*72
$GPRMC,130907.941,A,4420.670,N,00900.488,E,038.9,122.3,130525,000.0,W*74
$GPRMC,130908.941,A,4420.665,N,00900.501,E,038.9,122.3,130525,000.0,W*7F
$GPRMC,130909.941,A,4420.659,N,00900.514,E,038.9,122.3,130525,000.0,W*75
$GPRMC,130910.941,A,4420.653,N,00900.527,E,038.9,122.3,130525,000.0,W*77
$GPRMC,130911.941,A,4420.647,N,00900.539,E,038.9,122.3,130525,000.0,W*7C
$GPRMC,130912.941,A,4420.641,N,00900.552,E,038.9,122.3,130525,000.0,W*74
$GPRMC,130913.941,A,4420.636,N,00900.565,E,038.9,122.3,130525,000.0,W*71
$GPRMC,130914.941,A,4420.630,N,00900.578,E,038.9,122.3,130525,000.0,W*7C
$GPRMC,130915.941,A,4420.624,N,00900.590,E,038.9,122.3,130525,000.0,W*7E
$GPRMC,130916.941,A,4420.618,N,00900.603,E,038.9,122.3,130525,000.0,W*7B
$GPRMC,130917.941,A,4420.613,N,00900.616,E,038.9,122.3,130525,000.0,W*75
$GPRMC,130918.941,A,4420.607,N,00900.629,E,038.9,122.3,130525,000.0,W*73
$GPRMC,130919.941,A,4420.601,N,00900.641,E,038.9,122.3,130525,000.0,W*7A
$GPRMC,130920.941,A,4420.595,N,00900.654,E,038.9,122.3,130525,000.0,W*7A
$GPRMC,130921.941,A,4420.590,N,00900.667,E,038.9,122.3,130525,000.0,W*7E
$GPRMC,130922.941,A,4420.584,N,00900.680,E,038.9,122.3,130525,000.0,W*71
$GPRMC,130923.941,A,4420.578,N,00900.692,E,038.9,122.3,130525,000.0,W*70
$GPRMC,130924.941,A,4420.572,N,00900.705,E,038.9,122.3,130525,000.0,W*72
$GPRMC,130925.941,A,4420.567,N,00900.718,E,038.9,122.3,130525,000.0,W*7B
$GPRMC,130926.941,A,4420.561,N,00900.731,E,038.9,122.3,130525,000.0,W*75
$GPRMC,130927.941,A,4420.555,N,00900.743,E,038.9,122.3,130525,000.0,W*76
$GPRMC,130928.941,A,4420.549,N,00900.756,E,038.9,122.3,130525,000.0,W*70
$GPRMC,130929.941,A,4420.544,N,00900.769,E,038.9,122.3,130525,000.0,W*70
$GPRMC,130930.941,A,4420.538,N,00900.782,E,038.9,122.3,130525,000.0,W*76
$GPRMC,130931.941,A,4420.532,N,00900.794,E,038.9,122.3,130525,000.0,W*7A
$GPRMC,130932.941,A,4420.526,N,00900.807,E,038.9,122.3,130525,000.0,W*79
$GPRMC,130933.941,A,4420.521,N,00900.820,E,038.9,122.3,130525,000.0,W*7A
$GPRMC,130934.941,A,4420.515,N,00900.833,E,038.9,122.3,130525,000.0,W*78
$GPRMC,130935.941,A,4420.509,N,00900.845,E,038.9,122.3,130525,000.0,W*75
$GPRMC,130936.941,A,4420.503,N,00900.858,E,038.9,122.3,130525,000.0,W*70
$GPRMC,130937.941,A,4420.498,N,00900.871,E,038.9,122.3,130525,000.0,W*79
$GPRMC,130938.941,A,4420.492,N,00900.884,E,038.9,122.3,130525,000.0,W*76
$GPRMC,130939.941,A,4420.486,N,00900.897,E,038.9,122.3,130525,000.0,W*70
$GPRMC,130940.941,A,4420.480,N,00900.909,E,038.9,122.3,130525,000.0,W*7E
$GPRMC,130941.941,A,4420.474,N,00900.922,E,038.9,122.3,130525,000.0,W*7D
$GPRMC,130942.941,A,4420.469,N,00900.935,E,038.9,122.3,130525,000.0,W*74
$GPRMC,130943.941,A,4420.463,N,00900.948,E,038.9,122.3,130525,000.0,W*75
$GPRMC,130944.941,A,4420.457,N,00900.960,E,038.9,122.3,130525,000.0,W*7F
$GPRMC,130945.941,A,4420.451,N,00900.973,E,038.9,122.3,130525,000.0,W*7A
$GPRMC,130946.941,A,4420.446,N,00900.986,E,038.9,122.3,130525,000.0,W*75
$GPRMC,130947.941,A,4420.440,N,00900.999,E,038.9,122.3,130525,000.0,W*7C
$GPRMC,130948.941,A,4420.434,N,00901.011,E,038.9,122.3,130525,000.0,W*78
$GPRMC,130949.941,A,4420.428,N,00901.024,E,038.9,122.3,130525,000.0,W*72
$GPRMC,130950.941,A,4420.423,N,00901.037,E,038.9,122.3,130525,000.0,W*73
$GPRMC,130951.941,A,4420.417,N,00901.050,E,038.9,122.3,130525,000.0,W*74
$GPRMC,130952.941,A,4420.411,N,00901.062,E,038.9,122.3,130525,000.0,W*70
$GPRMC,130953.941,A,4420.405,N,00901.075,E,038.9,122.3,130525,000.0,W*72
$GPRMC,130954.941,A,4420.400,N,00901.088,E,038.9,122.3,130525,000.0,W*72
$GPRMC,130955.941,A,4420.394,N,00901.101,E,038.9,122.3,130525,000.0,W*79
$GPRMC,130956.941,A,4420.388,N,00901.113,E,038.9,122.3,130525,000.0,W*74
$GPRMC,130957.941,A,4420.382,N,00901.126,E,038.9,122.3,130525,000.0,W*79
$GPRMC,130958.941,A,4420.377,N,00901.139,E,038.9,122.3,130525,000.0,W*72
$GPRMC,130959.941,A,4420.371,N,00901.152,E,038.9,122.3,130525,000.0,W*78
$GPRMC,131000.941,A,4420.365,N,00901.164,E,038.9,122.3,130525,000.0,W*7C
$GPRMC,131001.941,A,4420.359,N,00901.177,E,038.9,122.3,130525,000.0,W*70
$GPRMC,131002.941,A,4420.354,N,00901.190,E,038.9,122.3,130525,000.0,W*77
$GPRMC,131003.941,A,4420.348,N,00901.203,E,038.9,122.3,130525,000.0,W*72
$GPRMC,131004.941,A,4420.342,N,00901.215,E,038.9,122.3,130525,000.0,W*78
$GPRMC,131005.941,A,4420.336,N,00901.228,E,038.9,122.3,130525,000.0,W*74
$GPRMC,131006.941,A,4420.331,N,00901.241,E,038.9,122.3,130525,000.0,W*7F
$GPRMC,131007.941,A,4420.325,N,00901.254,E,038.9,122.3,130525,000.0,W*7F
$GPRMC,131008.941,A,4420.319,N,00901.266,E,038.9,122.3,130525,000.0,W*7E
$GPRMC,131009.941,A,4420.313,N,00901.279,E,038.9,122.3,130525,000.0,W*7B
$GPRMC,131010.941,A,4420.307,N,00901.292,E,038.9,122.3,130525,000.0,W*73
$GPRMC,131011.941,A,4420.302,N,00901.305,E,038.9,122.3,130525,000.0,W*78
$GPRMC,131012.941,A,4420.296,N,00901.318,E,038.9,122.3,130525,000.0,W*7B
$GPRMC,131013.941,A,4420.290,N,00901.330,E,038.9,122.3,130525,000.0,W*76
$GPRMC,131014.941,A,4420.284,N,00901.343,E,038.9,122.3,130525,000.0,W*70
$GPRMC,131015.941,A,4420.279,N,00901.356,E,038.9,122.3,130525,000.0,W*77
$GPRMC,131016.941,A,4420.273,N,00901.369,E,038.9,122.3,130525,000.0,W*72
$GPRMC,131017.941,A,4420.267,N,00901.381,E,038.9,122.3,130525,000.0,W*70
$GPRMC,131018.941,A,4420.261,N,00901.394,E,038.9,122.3,130525,000.0,W*7D
$GPRMC,131019.941,A,4420.256,N,00901.407,E,038.9,122.3,130525,000.0,W*75
$GPRMC,131020.941,A,4420.250,N,00901.420,E,038.9,122.3,130525,000.0,W*7C
$GPRMC,131021.941,A,4420.244,N,00901.432,E,038.9,122.3,130525,000.0,W*7B
$GPRMC,131022.941,A,4420.238,N,00901.445,E,038.9,122.3,130525,000.0,W*73
$GPRMC,131023.941,A,4420.233,N,00901.458,E,038.9,122.3,130525,000.0,W*75
$GPRMC,131024.941,A,4420.227,N,00901.471,E,038.9,122.3,130525,000.0,W*7C
$GPRMC,131025.941,A,4420.221,N,00901.483,E,038.9,122.3,130525,000.0,W*76
$GPRMC,131026.941,A,4420.215,N,00901.496,E,038.9,122.3,130525,000.0,W*76
$GPRMC,131027.941,A,4420.210,N,00901.509,E,038.9,122.3,130525,000.0,W*75
$GPRMC,131028.941,A,4420.204,N,00901.522,E,038.9,122.3,130525,000.0,W*76
$GPRMC,131029.941,A,4420.198,N,00901.534,E,038.9,122.3,130525,000.0,W*76
$GPRMC,131030.941,A,4420.192,N,00901.547,E,038.9,122.3,130525,000.0,W*70
$GPRMC,131031.941,A,4420.187,N,00901.560,E,038.9,122.3,130525,000.0,W*70
$GPRMC,131032.941,A,4420.181,N,00901.573,E,038.9,122.3,130525,000.0,W*77
$GPRMC,131033.941,A,4420.175,N,00901.585,E,038.9,122.3,130525,000.0,W*74
$GPRMC,131034.941,A,4420.169,N,00901.598,E,038.9,122.3,130525,000.0,W*72
$GPRMC,131035.941,A,4420.164,N,00901.611,E,038.9,122.3,130525,000.0,W*7C
$GPRMC,131036.941,A,4420.158,N,00901.624,E,038.9,122.3,130525,000.0,W*76
$GPRMC,131037.941,A,4420.152,N,00901.636,E,038.9,122.3,130525,000.0,W*7E
$GPRMC,131038.941,A,4420.146,N,00901.649,E,038.9,122.3,130525,000.0,W*7C
$GPRMC,131039.941,A,4420.140,N,00901.662,E,038.9,122.3,130525,000.0,W*72
$GPRMC,131040.941,A,4420.135,N,00901.675,E,038.9,122.3,130525,000.0,W*78
$GPRMC,131041.941,A,4420.129,N,00901.687,E,038.9,122.3,130525,000.0,W*79
$GPRMC,131042.941,A,4420.123,N,00901.700,E,038.9,122.3,130525,000.0,W*7E
$GPRMC,131043.941,A,4420.117,N,00901.713,E,038.9,122.3,130525,000.0,W*7A
$GPRMC,131044.941,A,4420.112,N,00901.726,E,038.9,122.3,130525,000.0,W*7E
$GPRMC,131045.941,A,4420.106,N,00901.738,E,038.9,122.3,130525,000.0,W*75
$GPRMC,131046.941,A,4420.100,N,00901.751,E,038.9,122.3,130525,000.0,W*7F
$GPRMC,131047.941,A,4420.094,N,00901.764,E,038.9,122.3,130525,000.0,W*74
$GPRMC,131048.941,A,4420.089,N,00901.777,E,038.9,122.3,130525,000.0,W*75
$GPRMC,131049.941,A,4420.083,N,00901.790,E,038.9,122.3,130525,000.0,W*77
$GPRMC,131050.941,A,4420.077,N,00901.802,E,038.9,122.3,130525,000.0,W*70
$GPRMC,131051.941,A,4420.071,N,00901.815,E,038.9,122.3,130525,000.0,W*71
$GPRMC,131052.941,A,4420.066,N,00901.828,E,038.9,122.3,130525,000.0,W*7A
$GPRMC,131053.941,A,4420.060,N,00901.841,E,038.9,122.3,130525,000.0,W*72
$GPRMC,131054.941,A,4420.054,N,00901.853,E,038.9,122.3,130525,000.0,W*71
$GPRMC,131055.941,A,4420.048,N,00901.866,E,038.9,122.3,130525,000.0,W*7B
$GPRMC,131056.941,A,4420.043,N,00901.879,E,038.9,122.3,130525,000.0,W*7D
$GPRMC,131057.941,A,4420.037,N,00901.892,E,038.9,122.3,130525,000.0,W*7A
$GPRMC,131058.941,A,4420.031,N,00901.904,E,038.9,122.3,130525,000.0,W*7D
$GPRMC,131059.941,A,4420.025,N,00901.917,E,038.9,122.3,130525,000.0,W*7B
$GPRMC,131100.941,A,4420.020,N,00901.930,E,038.9,122.3,130525,000.0,W*76
$GPRMC,131101.941,A,4420.014,N,00901.943,E,038.9,122.3,130525,000.0,W*74
$GPRMC,131102.941,A,4420.008,N,00901.955,E,038.9,122.3,130525,000.0,W*7D
$GPRMC,131103.941,A,4420.002,N,00901.968,E,038.9,122.3,130525,000.0,W*78
$GPRMC,131104.941,A,4419.997,N,00901.981,E,038.9,122.3,130525,000.0,W*77
$GPRMC,131105.941,A,4419.991,N,00901.994,E,038.9,122.3,130525,000.0,W*74
$GPRMC,131106.941,A,4419.985,N,00902.006,E,038.9,122.3,130525,000.0,W*73
$GPRMC,131107.941,A,4419.979,N,00902.019,E,038.9,122.3,130525,000.0,W*7F
$GPRMC,131108.941,A,4419.973,N,00902.032,E,038.9,122.3,130525,000.0,W*73
$GPRMC,131109.941,A,4419.968,N,00902.045,E,038.9,122.3,130525,000.0,W*78
$GPRMC,131110.941,A,4419.962,N,00902.057,E,038.9,122.3,130525,000.0,W*79
$GPRMC,131111.941,A,4419.956,N,00902.070,E,038.9,122.3,130525,000.0,W*7A
$GPRMC,131112.941,A,4419.950,N,00902.083,E,038.9,122.3,130525,000.0,W*73
$GPRMC,131113.941,A,4419.945,N,00902.096,E,038.9,122.3,130525,000.0,W*72
$GPRMC,131114.941,A,4419.939,N,00902.108,E,038.9,122.3,130525,000.0,W*78
$GPRMC,131115.941,A,4419.933,N,00902.121,E,038.9,122.3,130525,000.0,W*78
$GPRMC,131116.941,A,4419.927,N,00902.134,E,038.9,122.3,130525,000.0,W*7A
$GPRMC,131117.941,A,4419.922,N,00902.147,E,038.9,122.3,130525,000.0,W*7A
$GPRMC,131118.941,A,4419.916,N,00902.159,E,038.9,122.3,130525,000.0,W*7D
$GPRMC,131119.941,A,4419.910,N,00902.172,E,038.9,122.3,130525,000.0,W*73
$GPRMC,131120.941,A,4419.904,N,00902.185,E,038.9,122.3,130525,000.0,W*74
$GPRMC,131121.941,A,4419.899,N,00902.198,E,038.9,122.3,130525,000.0,W*7C
$GPRMC,131122.941,A,4419.893,N,00902.211,E,038.9,122.3,130525,000.0,W*77
$GPRMC,131123.941,A,4419.887,N,00902.223,E,038.9,122.3,130525,000.0,W*72
$GPRMC,131124.941,A,4419.881,N,00902.236,E,038.9,122.3,130525,000.0,W*77
$GPRMC,131125.941,A,4419.876,N,00902.249,E,038.9,122.3,130525,000.0,W*76
$GPRMC,131126.941,A,4419.870,N,00902.262,E,038.9,122.3,130525,000.0,W*7A
$GPRMC,131127.941,A,4419.864,N,00902.274,E,038.9,122.3,130525,000.0,W*79
$GPRMC,131128.941,A,4419.858,N,00902.287,E,038.9,122.3,130525,000.0,W*75
$GPRMC,131129.941,A,4419.853,N,00902.300,E,038.9,122.3,130525,000.0,W*71
$GPRMC,131130.941,A,4419.847,N,00902.313,E,038.9,122.3,130525,000.0,W*7E
$GPRMC,131131.941,A,4419.841,N,00902.325,E,038.9,122.3,130525,000.0,W*7C
$GPRMC,131132.941,A,4419.835,N,00902.338,E,038.9,122.3,130525,000.0,W*70
$GPRMC,131133.941,A,4419.829,N,00902.351,E,038.9,122.3,130525,000.0,W*73
$GPRMC,131134.941,A,4419.824,N,00902.364,E,038.9,122.3,130525,000.0,W*7F
$GPRMC,131135.941,A,4419.818,N,00902.376,E,038.9,122.3,130525,000.0,W*72
$GPRMC,131136.941,A,4419.812,N,00902.389,E,038.9,122.3,130525,000.0,W*7B
$GPRMC,131137.941,A,4419.806,N,00902.402,E,038.9,122.3,130525,000.0,W*7B
$GPRMC,131138.941,A,4419.801,N,00902.415,E,038.9,122.3,130525,000.0,W*75
$GPRMC,131139.941,A,4419.795,N,00902.427,E,038.9,122.3,130525,000.0,W*77
$GPRMC,131140.941,A,4419.789,N,00902.440,E,038.9,122.3,130525,000.0,W*75
$GPRMC,131141.941,A,4419.783,N,00902.453,E,038.9,122.3,130525,000.0,W*7C
$GPRMC,131142.941,A,4419.778,N,00902.466,E,038.9,122.3,130525,000.0,W*7D
$GPRMC,131143.941,A,4419.772,N,00902.478,E,038.9,122.3,130525,000.0,W*79
$GPRMC,131144.941,A,4419.766,N,00902.491,E,038.9,122.3,130525,000.0,W*7C
$GPRMC,131145.941,A,4419.760,N,00902.504,E,038.9,122.3,130525,000.0,W*76
$GPRMC,131146.941,A,4419.755,N,00902.517,E,038.9,122.3,130525,000.0,W*71
$GPRMC,131147.941,A,4419.749,N,00902.529,E,038.9,122.3,130525,000.0,W*70
$GPRMC,131148.941,A,4419.743,N,00902.542,E,038.9,122.3,130525,000.0,W*78
$GPRMC,131149.941,A,4419.737,N,00902.555,E,038.9,122.3,130525,000.0,W*7C
$GPRMC,131150.941,A,4419.732,N,00902.568,E,038.9,122.3,130525,000.0,W*7F
$GPRMC,131151.941,A,4419.726,N,00902.580,E,038.9,122.3,130525,000.0,W*7D
$GPRMC,131152.941,A,4419.720,N,00902.593,E,038.9,122.3,130525,000.0,W*7A
$GPRMC,131153.941,A,4419.714,N,00902.606,E,038.9,122.3,130525,000.0,W*73
$GPRMC,131154.941,A,4419.709,N,00902.619,E,038.9,122.3,130525,000.0,W*76
$GPRMC,131155.941,A,4419.703,N,00902.631,E,038.9,122.3,130525,000.0,W*77
$GPRMC,131156.941,A,4419.697,N,00902.644,E,038.9,122.3,130525,000.0,W*7A
$GPRMC,131157.941,A,4419.691,N,00902.657,E,038.9,122.3,130525,000.0,W*7F
$GPRMC,131158.941,A,4419.686,N,00902.670,E,038.9,122.3,130525,000.0,W*73
$GPRMC,131159.941,A,4419.680,N,00902.683,E,038.9,122.3,130525,000.0,W*78
$GPRMC,131200.941,A,4419.674,N,00902.695,E,038.9,122.3,130525,000.0,W*7B
$GPRMC,131201.941,A,4419.668,N,00902.708,E,038.9,122.3,130525,000.0,W*72
$GPRMC,131202.941,A,4419.662,N,00902.721,E,038.9,122.3,130525,000.0,W*70
$GPRMC,131203.941,A,4419.657,N,00902.734,E,038.9,122.3,130525,000.0,W*73
$GPRMC,131204.941,A,4419.651,N,00902.746,E,038.9,122.3,130525,000.0,W*77
$GPRMC,131205.941,A,4419.645,N,00902.759,E,038.9,122.3,130525,000.0,W*7D
$GPRMC,131206.941,A,4419.639,N,00902.772,E,038.9,122.3,130525,000.0,W*7C
$GPRMC,131207.941,A,4419.634,N,00902.785,E,038.9,122.3,130525,000.0,W*78
$GPRMC,131208.941,A,4419.628,N,00902.797,E,038.9,122.3,130525,000.0,W*79
$GPRMC,131209.941,A,4419.622,N,00902.810,E,038.9,122.3,130525,000.0,W*72
$GPRMC,131210.941,A,4419.616,N,00902.823,E,038.9,122.3,130525,000.0,W*7D
$GPRMC,131211.941,A,4419.611,N,00902.836,E,038.9,122.3,130525,000.0,W*7F
$GPRMC,131212.941,A,4419.605,N,00902.848,E,038.9,122.3,130525,000.0,W*70
$GPRMC,131213.941,A,4419.599,N,00902.861,E,038.9,122.3,130525,000.0,W*7C
$GPRMC,131214.941,A,4419.593,N,00902.874,E,038.9,122.3,130525,000.0,W*75
$GPRMC,131215.941,A,4419.588,N,00902.887,E,038.9,122.3,130525,000.0,W*72
$GPRMC,131216.941,A,4419.582,N,00902.899,E,038.9,122.3,130525,000.0,W*74
$GPRMC,131217.941,A,4419.576,N,00902.912,E,038.9,122.3,130525,000.0,W*7C
$GPRMC,131218.941,A,4419.570,N,00902.925,E,038.9,122.3,130525,000.0,W*71
$GPRMC,131219.941,A,4419.565,N,00902.938,E,038.9,122.3,130525,000.0,W*78
$GPRMC,131220.941,A,4419.559,N,00902.950,E,038.9,122.3,130525,000.0,W*73
$GPRMC,131221.941,A,4419.553,N,00902.963,E,038.9,122.3,130525,000.0,W*78
$GPRMC,131222.941,A,4419.547,N,00902.976,E,038.9,122.3,130525,000.0,W*7A
$GPRMC,131223.941,A,4419.542,N,00902.989,E,038.9,122.3,130525,000.0,W*7E
$GPRMC,131224.941,A,4419.536,N,00903.001,E,038.9,122.3,130525,000.0,W*72
$GPRMC,131225.941,A,4419.530,N,00903.014,E,038.9,122.3,130525,000.0,W*71
$GPRMC,131226.941,A,4419.524,N,00903.027,E,038.9,122.3,130525,000.0,W*77
$GPRMC,131227.941,A,4419.519,N,00903.040,E,038.9,122.3,130525,000.0,W*79
$GPRMC,131228.941,A,4419.513,N,00903.052,E,038.9,122.3,130525,000.0,W*7F
$GPRMC,131229.941,A,4419.507,N,00903.065,E,038.9,122.3,130525,000.0,W*7F
$GPRMC,131230.941,A,4419.501,N,00903.078,E,038.9,122.3,130525,000.0,W*7D
$GPRMC,131231.941,A,4419.495,N,00903.091,E,038.9,122.3,130525,000.0,W*77
$GPRMC,131232.941,A,4419.490,N,00903.103,E,038.9,122.3,130525,000.0,W*7B
$GPRMC,131233.941,A,4419.484,N,00903.116,E,038.9,122.3,130525,000.0,W*7B
$GPRMC,131234.941,A,4419.478,N,00903.129,E,038.9,122.3,130525,000.0,W*73
$GPRMC,131235.941,A,4419.472,N,00903.142,E,038.9,122.3,130525,000.0,W*75
$GPRMC,131236.941,A,4419.467,N,00903.155,E,038.9,122.3,130525,000.0,W*74
$GPRMC,131237.941,A,4419.461,N,00903.167,E,038.9,122.3,130525,000.0,W*72
$GPRMC,131238.941,A,4419.455,N,00903.180,E,038.9,122.3,130525,000.0,W*73
$GPRMC,131239.941,A,4419.449,N,00903.193,E,038.9,122.3,130525,000.0,W*7D
$GPRMC,131240.941,A,4419.444,N,00903.206,E,038.9,122.3,130525,000.0,W*71
$GPRMC,131241.941,A,4419.438,N,00903.218,E,038.9,122.3,130525,000.0,W*74
$GPRMC,131242.941,A,4419.432,N,00903.231,E,038.9,122.3,130525,000.0,W*76
$GPRMC,131243.941,A,4419.426,N,00903.244,E,038.9,122.3,130525,000.0,W*70
$GPRMC,131244.941,A,4419.421,N,00903.257,E,038.9,122.3,130525,000.0,W*72
$GPRMC,131245.941,A,4419.415,N,00903.269,E,038.9,122.3,130525,000.0,W*79
$GPRMC,131246.941,A,4419.409,N,00903.282,E,038.9,122.3,130525,000.0,W*72
$GPRMC,131247.941,A,4419.403,N,00903.295,E,038.9,122.3,130525,000.0,W*7F
$GPRMC,131248.941,A,4419.398,N,00903.308,E,038.9,122.3,130525,000.0,W*70
$GPRMC,131249.941,A,4419.392,N,00903.320,E,038.9,122.3,130525,000.0,W*71
$GPRMC,131250.941,A,4419.386,N,00903.333,E,038.9,122.3,130525,000.0,W*7E
$GPRMC,131251.941,A,4419.380,N,00903.346,E,038.9,122.3,130525,000.0,W*7B
$GPRMC,131252.941,A,4419.375,N,00903.359,E,038.9,122.3,130525,000.0,W*7C
$GPRMC,131253.941,A,4419.369,N,00903.371,E,038.9,122.3,130525,000.0,W*7A
$GPRMC,131254.941,A,4419.363,N,00903.384,E,038.9,122.3,130525,000.0,W*7D
$GPRMC,131255.941,A,4419.357,N,00903.397,E,038.9,122.3,130525,000.0,W*79
$GPRMC,131256.941,A,4419.352,N,00903.410,E,038.9,122.3,130525,000.0,W*77
$GPRMC,131257.941,A,4419.346,N,00903.422,E,038.9,122.3,130525,000.0,W*72
$GPRMC,131258.941,A,4419.340,N,00903.435,E,038.9,122.3,130525,000.0,W*7D
$GPRMC,131259.941,A,4419.334,N,00903.448,E,038.9,122.3,130525,000.0,W*75
$GPRMC,131300.941,A,4419.328,N,00903.461,E,038.9,122.3,130525,000.0,W*7E
$GPRMC,131301.941,A,4419.323,N,00903.473,E,038.9,122.3,130525,000.0,W*77
$GPRMC,131302.941,A,4419.317,N,00903.486,E,038.9,122.3,130525,000.0,W*79
$GPRMC,131303.941,A,4419.311,N,00903.499,E,038.9,122.3,130525,000.0,W*70
$GPRMC,131304.941,A,4419.305,N,00903.512,E,038.9,122.3,130525,000.0,W*70
$GPRMC,131305.941,A,4419.300,N,00903.524,E,038.9,122.3,130525,000.0,W*71
$GPRMC,131306.941,A,4419.294,N,00903.537,E,038.9,122.3,130525,000.0,W*7C
$GPRMC,131307.941,A,4419.288,N,00903.550,E,038.9,122.3,130525,000.0,W*71
$GPRMC,131308.941,A,4419.282,N,00903.563,E,038.9,122.3,130525,000.0,W*74
$GPRMC,131309.941,A,4419.277,N,00903.576,E,038.9,122.3,130525,000.0,W*7B
$GPRMC,131310.941,A,4419.271,N,00903.588,E,038.9,122.3,130525,000.0,W*74
$GPRMC,131311.941,A,4419.265,N,00903.601,E,038.9,122.3,130525,000.0,W*72
$GPRMC,131312.941,A,4419.259,N,00903.614,E,038.9,122.3,130525,000.0,W*7A
$GPRMC,131313.941,A,4419.254,N,00903.627,E,038.9,122.3,130525,000.0,W*76
$GPRMC,131314.941,A,4419.248,N,00903.639,E,038.9,122.3,130525,000.0,W*73
$GPRMC,131315.941,A,4419.242,N,00903.652,E,038.9,122.3,130525,000.0,W*75
$GPRMC,131316.941,A,4419.236,N,00903.665,E,038.9,122.3,130525,000.0,W*71
$GPRMC,131317.941,A,4419.231,N,00903.678,E,038.9,122.3,130525,000.0,W*7B
$GPRMC,131318.941,A,4419.225,N,00903.690,E,038.9,122.2,130525,000.0,W*76
$GPRMC,131319.941,A,4419.219,N,00903.703,E,038.9,122.2,130525,000.0,W*73
$GPRMC,131320.941,A,4419.213,N,00903.716,E,038.9,122.2,130525,000.0,W*77
$GPRMC,131321.941,A,4419.208,N,00903.729,E,038.9,122.2,130525,000.0,W*70
$GPRMC,131322.941,A,4419.202,N,00903.741,E,038.9,122.2,130525,000.0,W*77
$GPRMC,131323.941,A,4419.196,N,00903.754,E,038.9,122.2,130525,000.0,W*7C
$GPRMC,131324.941,A,4419.190,N,00903.767,E,038.9,122.2,130525,000.0,W*7D
$GPRMC,131325.941,A,4419.185,N,00903.780,E,038.9,122.2,130525,000.0,W*71
$GPRMC,131326.941,A,4419.179,N,00903.792,E,038.9,122.2,130525,000.0,W*72
$GPRMC,131327.941,A,4419.173,N,00903.805,E,038.9,122.2,130525,000.0,W*78
$GPRMC,131328.941,A,4419.167,N,00903.818,E,038.9,122.2,130525,000.0,W*7E
$GPRMC,131329.941,A,4419.161,N,00903.831,E,038.9,122.2,130525,000.0,W*72
$GPRMC,131330.941,A,4419.156,N,00903.843,E,038.9,122.2,130525,000.0,W*7B
$GPRMC,131331.941,A,4419.150,N,00903.856,E,038.9,122.2,130525,000.0,W*78
$GPRMC,131332.941,A,4419.144,N,00903.869,E,038.9,122.2,130525,000.0,W*72
$GPRMC,131333.941,A,4419.138,N,00903.882,E,038.9,122.2,130525,000.0,W*7D
$GPRMC,131334.941,A,4419.133,N,00903.894,E,038.9,122.2,130525,000.0,W*76
$GPRMC,131335.941,A,4419.127,N,00903.907,E,038.9,122.2,130525,000.0,W*79
$GPRMC,131336.941,A,4419.121,N,00903.920,E,038.9,122.2,130525,000.0,W*79
$GPRMC,131337.941,A,4419.115,N,00903.933,E,038.9,122.2,130525,000.0,W*7D
$GPRMC,131338.941,A,4419.110,N,00903.945,E,038.9,122.2,130525,000.0,W*76
$GPRMC,131339.941,A,4419.104,N,00903.958,E,038.9,122.2,130525,000.0,W*7E
$GPRMC,131340.941,A,4419.098,N,00903.971,E,038.9,122.2,130525,000.0,W*7F
$GPRMC,131341.941,A,4419.092,N,00903.984,E,038.9,122.2,130525,000.0,W*7E
$GPRMC,131342.941,A,4419.087,N,00903.996,E,038.9,122.2,130525,000.0,W*7A
$GPRMC,131343.941,A,4419.081,N,00904.009,E,038.9,122.2,130525,000.0,W*75
$GPRMC,131344.941,A,4419.075,N,00904.022,E,038.9,122.2,130525,000.0,W*70
$GPRMC,131345.941,A,4419.069,N,00904.035,E,038.9,122.2,130525,000.0,W*7A
$GPRMC,131346.941,A,4419.064,N,00904.048,E,038.9,122.2,130525,000.0,W*7E
$GPRMC,131347.941,A,4419.058,N,00904.060,E,038.9,122.2,130525,000.0,W*7A
$GPRMC,131348.941,A,4419.052,N,00904.073,E,038.9,122.2,130525,000.0,W*7D
$GPRMC,131349.941,A,4419.046,N,00904.086,E,038.9,122.2,130525,000.0,W*73
$GPRMC,131350.941,A,4419.041,N,00904.099,E,038.9,122.2,130525,000.0,W*72
$GPRMC,131351.941,A,4419.035,N,00904.111,E,038.9,122.2,130525,000.0,W*71
$GPRMC,131352.941,A,4419.029,N,00904.124,E,038.9,122.2,130525,000.0,W*79
$GPRMC,131353.941,A,4419.023,N,00904.137,E,038.9,122.2,130525,000.0,W*70
$GPRMC,131354.941,A,4419.018,N,00904.150,E,038.9,122.2,130525,000.0,W*7E
$GPRMC,131355.941,A,4419.012,N,00904.162,E,038.9,122.2,130525,000.0,W*74
$GPRMC,131356.941,A,4419.006,N,00904.175,E,038.9,122.2,130525,000.0,W*74
$GPRMC,131357.941,A,4419.000,N,00904.188,E,038.9,122.2,130525,000.0,W*71
$GPRMC,131358.941,A,4418.994,N,00904.201,E,038.9,122.2,130525,000.0,W*79
$GPRMC,131359.941,A,4418.989,N,00904.213,E,038.9,122.2,130525,000.0,W*77
$GPRMC,131400.941,A,4418.983,N,00904.226,E,038.9,122.2,130525,000.0,W*70
$GPRMC,131401.941,A,4418.977,N,00904.239,E,038.9,122.2,130525,000.0,W*74
$GPRMC,131402.941,A,4418.971,N,00904.252,E,038.9,122.2,130525,000.0,W*7C
$GPRMC,131403.941,A,4418.966,N,00904.264,E,038.9,122.2,130525,000.0,W*7E
$GPRMC,131404.941,A,4418.960,N,00904.277,E,038.9,122.2,130525,000.0,W*7D
$GPRMC,131405.941,A,4418.954,N,00904.290,E,038.9,122.2,130525,000.0,W*72
$GPRMC,131406.941,A,4418.948,N,00904.303,E,038.9,122.2,130525,000.0,W*77
$GPRMC,131407.941,A,4418.943,N,00904.315,E,038.9,122.2,130525,000.0,W*7A
$GPRMC,131408.941,A,4418.937,N,00904.328,E,038.9,122.2,130525,000.0,W*78
$GPRMC,131409.941,A,4418.931,N,00904.341,E,038.9,122.2,130525,000.0,W*70
$GPRMC,131410.941,A,4418.925,N,00904.354,E,038.9,122.2,130525,000.0,W*79
$GPRMC,131411.941,A,4418.920,N,00904.366,E,038.9,122.2,130525,000.0,W*7C
$GPRMC,131412.941,A,4418.914,N,00904.379,E,038.9,122.2,130525,000.0,W*76
$GPRMC,131413.941,A,4418.908,N,00904.392,E,038.9,122.2,130525,000.0,W*7F
$GPRMC,131414.941,A,4418.902,N,00904.405,E,038.9,122.2,130525,000.0,W*7B
$GPRMC,131415.941,A,4418.897,N,00904.417,E,038.9,122.2,130525,000.0,W*74
$GPRMC,131416.941,A,4418.891,N,00904.430,E,038.9,122.2,130525,000.0,W*74
$GPRMC,131417.941,A,4418.885,N,00904.443,E,038.9,122.2,130525,000.0,W*74
$GPRMC,131418.941,A,4418.879,N,00904.456,E,038.9,122.2,130525,000.0,W*7C
$GPRMC,131419.941,A,4418.874,N,00904.469,E,038.9,122.2,130525,000.0,W*7C
$GPRMC,131420.941,A,4418.868,N,00904.481,E,038.9,122.2,130525,000.0,W*7D
$GPRMC,131421.941,A,4418.862,N,00904.494,E,038.9,122.2,130525,000.0,W*72
$GPRMC,131422.941,A,4418.856,N,00904.507,E,038.9,122.2,130525,000.0,W*7D
$GPRMC,131423.941,A,4418.851,N,00904.520,E,038.9,122.2,130525,000.0,W*7E
$GPRMC,131424.941,A,4418.845,N,00904.532,E,038.9,122.2,130525,000.0,W*7F
$GPRMC,131425.941,A,4418.839,N,00904.545,E,038.9,122.2,130525,000.0,W*75
$GPRMC,131426.941,A,4418.833,N,00904.558,E,038.9,122.2,130525,000.0,W*70
$GPRMC,131427.941,A,4418.827,N,00904.571,E,038.9,122.2,130525,000.0,W*7F
$GPRMC,131428.941,A,4418.822,N,00904.583,E,038.9,122.2,130525,000.0,W*78
$GPRMC,131429.941,A,4418.816,N,00904.596,E,038.9,122.2,130525,000.0,W*7A
$GPRMC,131430.941,A,4418.810,N,00904.609,E,038.9,122.2,130525,000.0,W*71
$GPRMC,131431.941,A,4418.804,N,00904.622,E,038.9,122.2,130525,000.0,W*7C
$GPRMC,131432.941,A,4418.799,N,00904.634,E,038.9,122.2,130525,000.0,W*73
$GPRMC,131433.941,A,4418.793,N,00904.647,E,038.9,122.2,130525,000.0,W*7C
$GPRMC,131434.941,A,4418.787,N,00904.660,E,038.9,122.2,130525,000.0,W*7B
$GPRMC,131435.941,A,4418.781,N,00904.673,E,038.9,122.2,130525,000.0,W*7E
$GPRMC,131436.941,A,4418.776,N,00904.685,E,038.9,122.2,130525,000.0,W*7C
$GPRMC,131437.941,A,4418.770,N,00904.698,E,038.9,122.2,130525,000.0,W*77
$GPRMC,131438.941,A,4418.764,N,00904.711,E,038.9,122.2,130525,000.0,W*7D
$GPRMC,131439.941,A,4418.758,N,00904.724,E,038.9,122.2,130525,000.0,W*75
$GPRMC,131440.941,A,4418.753,N,00904.736,E,038.9,122.2,130525,000.0,W*73
$GPRMC,131441.941,A,4418.747,N,00904.749,E,038.9,122.2,130525,000.0,W*7F
$GPRMC,131442.941,A,4418.741,N,00904.762,E,038.9,122.2,130525,000.0,W*73
$GPRMC,131443.941,A,4418.735,N,00904.775,E,038.9,122.2,130525,000.0,W*77
$GPRMC,131444.941,A,4418.730,N,00904.787,E,038.9,122.2,130525,000.0,W*78
$GPRMC,131445.941,A,4418.724,N,00904.800,E,038.9,122.2,130525,000.0,W*7C
$GPRMC,131446.941,A,4418.718,N,00904.813,E,038.9,122.2,130525,000.0,W*72
$GPRMC,131447.941,A,4418.712,N,00904.826,E,038.9,122.2,130525,000.0,W*7F
$GPRMC,131448.941,A,4418.707,N,00904.838,E,038.9,122.2,130525,000.0,W*7B
$GPRMC,131449.941,A,4418.701,N,00904.851,E,038.9,122.2,130525,000.0,W*73
$GPRMC,131450.941,A,4418.695,N,00904.864,E,038.9,122.2,130525,000.0,W*71
$GPRMC,131451.941,A,4418.689,N,00904.877,E,038.9,122.2,130525,000.0,W*7F
$GPRMC,131452.941,A,4418.684,N,00904.889,E,038.9,122.2,130525,000.0,W*70
$GPRMC,131453.941,A,4418.678,N,00904.902,E,038.9,122.2,130525,000.0,W*70
$GPRMC,131454.941,A,4418.672,N,00904.915,E,038.9,122.2,130525,000.0,W*7B
$GPRMC,131455.941,A,4418.666,N,00904.928,E,038.9,122.2,130525,000.0,W*71
$GPRMC,131456.941,A,4418.660,N,00904.941,E,038.9,122.2,130525,000.0,W*7B
$GPRMC,131457.941,A,4418.655,N,00904.953,E,038.9,122.2,130525,000.0,W*7F
$GPRMC,131458.941,A,4418.649,N,00904.966,E,038.9,122.2,130525,000.0,W*7B
$GPRMC,131459.941,A,4418.643,N,00904.979,E,038.9,122.2,130525,000.0,W*7E
$GPRMC,131500.941,A,4418.637,N,00904.992,E,038.9,122.2,130525,000.0,W*75
$GPRMC,131501.941,A,4418.632,N,00905.004,E,038.9,122.2,130525,000.0,W*76
$GPRMC,131502.941,A,4418.626,N,00905.017,E,038.9,122.2,130525,000.0,W*72
$GPRMC,131503.941,A,4418.620,N,00905.030,E,038.9,122.2,130525,000.0,W*70
$GPRMC,131504.941,A,4418.614,N,00905.043,E,038.9,122.2,130525,000.0,W*74
$GPRMC,131505.941,A,4418.609,N,00905.055,E,038.9,122.2,130525,000.0,W*7E
$GPRMC,131506.941,A,4418.603,N,00905.068,E,038.9,122.2,130525,000.0,W*79
$GPRMC,131507.941,A,4418.597,N,00905.081,E,038.9,122.2,130525,000.0,W*71
$GPRMC,131508.941,A,4418.591,N,00905.094,E,038.9,122.2,130525,000.0,W*7C
$GPRMC,131509.941,A,4418.586,N,00905.106,E,038.9,122.2,130525,000.0,W*71
$GPRMC,131510.941,A,4418.580,N,00905.119,E,038.9,122.2,130525,000.0,W*71
$GPRMC,131511.941,A,4418.574,N,00905.132,E,038.9,122.2,130525,000.0,W*72
$GPRMC,131512.941,A,4418.568,N,00905.145,E,038.9,122.2,130525,000.0,W*7C
$GPRMC,131513.941,A,4418.563,N,00905.157,E,038.9,122.2,130525,000.0,W*75
$GPRMC,131514.941,A,4418.557,N,00905.170,E,038.9,122.2,130525,000.0,W*70
$GPRMC,131515.941,A,4418.551,N,00905.183,E,038.9,122.2,130525,000.0,W*7B
$GPRMC,131516.941,A,4418.545,N,00905.196,E,038.9,122.2,130525,000.0,W*79
$GPRMC,131517.941,A,4418.540,N,00905.208,E,038.9,122.2,130525,000.0,W*79
$GPRMC,131518.941,A,4418.534,N,00905.221,E,038.9,122.2,130525,000.0,W*7E
$GPRMC,131519.941,A,4418.528,N,00905.234,E,038.9,122.2,130525,000.0,W*76
$GPRMC,131520.941,A,4418.522,N,00905.247,E,038.9,122.2,130525,000.0,W*72
$GPRMC,131521.941,A,4418.517,N,00905.259,E,038.9,122.2,130525,000.0,W*7A
$GPRMC,131522.941,A,4418.511,N,00905.272,E,038.9,122.2,130525,000.0,W*76
$GPRMC,131523.941,A,4418.505,N,00905.285,E,038.9,122.2,130525,000.0,W*7A
$GPRMC,131524.941,A,4418.499,N,00905.298,E,038.9,122.2,130525,000.0,W*75
$GPRMC,131525.941,A,4418.493,N,00905.310,E,038.9,122.2,130525,000.0,W*7F
$GPRMC,131526.941,A,4418.488,N,00905.323,E,038.9,122.2,130525,000.0,W*76
$GPRMC,131527.941,A,4418.482,N,00905.336,E,038.9,122.2,130525,000.0,W*79
$GPRMC,131528.941,A,4418.476,N,00905.349,E,038.9,122.2,130525,000.0,W*75
$GPRMC,131529.941,A,4418.470,N,00905.362,E,038.9,122.2,130525,000.0,W*7B
$GPRMC,131530.941,A,4418.465,N,00905.374,E,038.9,122.2,130525,000.0,W*70
$GPRMC,131531.941,A,4418.459,N,00905.387,E,038.9,122.2,130525,000.0,W*72
$GPRMC,131532.941,A,4418.453,N,00905.400,E,038.9,122.2,130525,000.0,W*73
